{"type":"FeatureCollection","features":[{"type":"Feature","geometry":{"type":"Point","coordinates":[-3.187789,55.944386]},"properties":{"marker-color":"#40ff00","marker-symbol":"lighthouse","location":"thank.salsa.brain"}},{"type":"Feature","geometry":{"type":"Point","coordinates":[-3.187645,55.944143]},"properties":{"marker-color":"#40ff00","marker-symbol":"lighthouse","location":"bound.ends.matter"}},{"type":"Feature","geometry":{"type":"Point","coordinates":[-3.187307,55.944494]},"properties":{"marker-color":"#000","marker-symbol":"cross","location":"only.fairly.rift"}},{"type":"Feature","geometry":{"type":"Point","coordinates":[-3.186777,55.944575]},"properties":{"marker-color":"#c0ff00","marker-symbol":"lighthouse","location":"artist.gets.react"}},{"type":"Feature","geometry":{"type":"Point","coordinates":[-3.186537,55.944925]},"properties":{"marker-color":"#ff4000","marker-symbol":"danger","location":"laws.merit.bleak"}},{"type":"Feature","geometry":{"type":"Point","coordinates":[-3.186922,55.945437]},"properties":{"marker-color":"#ff0000","marker-symbol":"danger","location":"spent.spoon.bolt"}},{"type":"Feature","geometry":{"type":"Point","coordinates":[-3.186729,55.945653]},"properties":{"marker-color":"#ffc000","marker-symbol":"danger","location":"hidden.handle.softly"}},{"type":"Feature","geometry":{"type":"Point","coordinates":[-3.186296,55.945761]},"properties":{"marker-color":"#ffc000","marker-symbol":"danger","location":"posts.kicked.universally"}},{"type":"Feature","geometry":{"type":"Point","coordinates":[-3.185814,55.94603]},"properties":{"marker-color":"#ffc000","marker-symbol":"danger","location":"renew.slows.basket"}},{"type":"Feature","geometry":{"type":"Point","coordinates":[-3.185332,55.946138]},"properties":{"marker-color":"#ff4000","marker-symbol":"danger","location":"prime.rent.silk"}},{"type":"Feature","geometry":{"type":"Point","coordinates":[-3.185043,55.945868]},"properties":{"marker-color":"#ffc000","marker-symbol":"danger","location":"rider.aura.bulb"}},{"type":"Feature","geometry":{"type":"Point","coordinates":[-3.184513,55.945302]},"properties":{"marker-color":"#ffc000","marker-symbol":"danger","location":"settle.title.united"}},{"type":"Feature","geometry":{"type":"Point","coordinates":[-3.184658,55.943874]},"properties":{"marker-color":"#ff4000","marker-symbol":"danger","location":"rider.mile.lime"}},{"type":"Feature","geometry":{"type":"Point","coordinates":[-3.184803,55.943173]},"properties":{"marker-color":"#ff0000","marker-symbol":"danger","location":"brings.remedy.latter"}},{"type":"Feature","geometry":{"type":"Point","coordinates":[-3.185621,55.943065]},"properties":{"marker-color":"#ffc000","marker-symbol":"danger","location":"toned.deflection.bland"}},{"type":"Feature","geometry":{"type":"Point","coordinates":[-3.185814,55.943551]},"properties":{"marker-color":"#c0ff00","marker-symbol":"lighthouse","location":"record.sofa.sock"}},{"type":"Feature","geometry":{"type":"Point","coordinates":[-3.18567,55.944359]},"properties":{"marker-color":"#000","marker-symbol":"cross","location":"atoms.vanish.foods"}},{"type":"Feature","geometry":{"type":"Point","coordinates":[-3.186344,55.942958]},"properties":{"marker-color":"#ff0000","marker-symbol":"danger","location":"hers.banks.goat"}},{"type":"Feature","geometry":{"type":"Point","coordinates":[-3.187837,55.943227]},"properties":{"marker-color":"#80ff00","marker-symbol":"lighthouse","location":"gums.clock.modes"}},{"type":"Feature","geometry":{"type":"Point","coordinates":[-3.188608,55.943119]},"properties":{"marker-color":"#40ff00","marker-symbol":"lighthouse","location":"groups.ideas.script"}},{"type":"Feature","geometry":{"type":"Point","coordinates":[-3.190197,55.943443]},"properties":{"marker-color":"#00ff00","marker-symbol":"lighthouse","location":"arts.dish.scarcely"}},{"type":"Feature","geometry":{"type":"Point","coordinates":[-3.190583,55.942823]},"properties":{"marker-color":"#00ff00","marker-symbol":"lighthouse","location":"tonic.bliss.cove"}},{"type":"Feature","geometry":{"type":"Point","coordinates":[-3.191161,55.942742]},"properties":{"marker-color":"#00ff00","marker-symbol":"lighthouse","location":"along.spill.limp"}},{"type":"Feature","geometry":{"type":"Point","coordinates":[-3.191113,55.943901]},"properties":{"marker-color":"#40ff00","marker-symbol":"lighthouse","location":"spicy.bunch.shady"}},{"type":"Feature","geometry":{"type":"Point","coordinates":[-3.191065,55.94444]},"properties":{"marker-color":"#80ff00","marker-symbol":"lighthouse","location":"paying.crowd.weep"}},{"type":"Feature","geometry":{"type":"Point","coordinates":[-3.191594,55.945195]},"properties":{"marker-color":"#ff0000","marker-symbol":"danger","location":"hills.feels.tunes"}},{"type":"Feature","geometry":{"type":"Point","coordinates":[-3.18986,55.945491]},"properties":{"marker-color":"#ff8000","marker-symbol":"danger","location":"turkey.limit.ramp"}},{"type":"Feature","geometry":{"type":"Point","coordinates":[-3.189957,55.94603]},"properties":{"marker-color":"#ff0000","marker-symbol":"danger","location":"love.behind.orchestra"}},{"type":"Feature","geometry":{"type":"Point","coordinates":[-3.188897,55.945707]},"properties":{"marker-color":"#ffc000","marker-symbol":"danger","location":"stops.else.chats"}},{"type":"Feature","geometry":{"type":"Point","coordinates":[-3.188801,55.945437]},"properties":{"marker-color":"#c0ff00","marker-symbol":"lighthouse","location":"shady.soft.phones"}},{"type":"Feature","geometry":{"type":"Point","coordinates":[-3.188319,55.945518]},"properties":{"marker-color":"#ff8000","marker-symbol":"danger","location":"skills.less.herb"}},{"type":"Feature","geometry":{"type":"Point","coordinates":[-3.189186,55.945087]},"properties":{"marker-color":"#80ff00","marker-symbol":"lighthouse","location":"number.exist.rate"}},{"type":"Feature","geometry":{"type":"Point","coordinates":[-3.187404,55.945949]},"properties":{"marker-color":"#ffc000","marker-symbol":"danger","location":"slips.mass.baking"}},{"type":"Feature","geometry":{"type":"LineString","coordinates":[[-3.188396,55.944425],[-3.188096,55.944425],[-3.1878006,55.9443729],[-3.1876506,55.9441131],[-3.1874577,55.9443429],[-3.1872649,55.9445727],[-3.1869649,55.9445727],[-3.1867351,55.9447656],[-3.1864753,55.9449156],[-3.1866681,55.9451454],[-3.1868609,55.9453752],[-3.1867109,55.945635],[-3.186429,55.9457376],[-3.1861692,55.9458876],[-3.1858873,55.9459902],[-3.1855919,55.9460423],[-3.18531,55.9461449],[-3.1851171,55.9459151],[-3.1849243,55.9456853],[-3.1846945,55.9454924],[-3.1845016,55.9452626],[-3.1845537,55.9449672],[-3.1846058,55.9446717],[-3.1846058,55.9443717],[-3.1846579,55.9440763],[-3.1846579,55.9437763],[-3.18471,55.9434809],[-3.1848126,55.943199],[-3.1851081,55.9431469],[-3.1854035,55.9430948],[-3.185699,55.9430427],[-3.185751,55.9433381],[-3.1858537,55.94362],[-3.1858016,55.9439155],[-3.185699,55.9441974],[-3.185849,55.9439376],[-3.185999,55.9436778],[-3.186149,55.9434179],[-3.1862516,55.943136],[-3.1864016,55.9428762],[-3.186697,55.9429283],[-3.1869924,55.9429804],[-3.1872744,55.943083],[-3.1875698,55.9431351],[-3.1878517,55.9432377],[-3.1881471,55.9431856],[-3.1884426,55.9431335],[-3.188738,55.9431856],[-3.1890335,55.9432377],[-3.1893289,55.9432898],[-3.1896244,55.9433419],[-3.1899198,55.943394],[-3.1902152,55.9434461],[-3.1903652,55.9431863],[-3.1905152,55.9429265],[-3.1907971,55.9428239],[-3.1910926,55.9427718],[-3.1910926,55.9430718],[-3.1910926,55.9433718],[-3.1910926,55.9436718],[-3.1911447,55.9439672],[-3.1910926,55.9442627],[-3.1912426,55.9445225],[-3.1913926,55.9447823],[-3.1915426,55.9450421],[-3.1912471,55.9450942],[-3.1909652,55.9451968],[-3.1906698,55.9452489],[-3.1903879,55.9453515],[-3.1900924,55.9454036],[-3.1898105,55.9455062],[-3.1899131,55.9457881],[-3.1899652,55.9460835],[-3.1896833,55.9459809],[-3.1894014,55.9458783],[-3.1891195,55.9457757],[-3.1888376,55.9456731],[-3.1887855,55.9453777],[-3.1885036,55.9454803],[-3.1887634,55.9453303],[-3.1890232,55.9451803],[-3.1887413,55.9452829],[-3.1884815,55.9454329],[-3.1882217,55.9455829],[-3.1879398,55.9456855],[-3.18768,55.9458355],[-3.1873981,55.9459381],[-3.1875481,55.9456783],[-3.1877779,55.9454855],[-3.1880733,55.9454334],[-3.1881759,55.9451515],[-3.1882785,55.9448696],[-3.1883306,55.9445741]]},"properties":{}}]}