{"type":"FeatureCollection","features":[{"type":"Feature","geometry":{"type":"Point","coordinates":[-3.187885,55.944709]},"properties":{"marker-color":"#ffc000","marker-symbol":"danger","location":"hurt.green.filer"}},{"type":"Feature","geometry":{"type":"Point","coordinates":[-3.187645,55.944143]},"properties":{"marker-color":"#40ff00","marker-symbol":"lighthouse","location":"bound.ends.matter"}},{"type":"Feature","geometry":{"type":"Point","coordinates":[-3.188126,55.943793]},"properties":{"marker-color":"#40ff00","marker-symbol":"lighthouse","location":"cubs.trucks.help"}},{"type":"Feature","geometry":{"type":"Point","coordinates":[-3.187837,55.943227]},"properties":{"marker-color":"#c0ff00","marker-symbol":"lighthouse","location":"gums.clock.modes"}},{"type":"Feature","geometry":{"type":"Point","coordinates":[-3.187693,55.942769]},"properties":{"marker-color":"#ffc000","marker-symbol":"danger","location":"panic.squad.danger"}},{"type":"Feature","geometry":{"type":"Point","coordinates":[-3.187355,55.943604]},"properties":{"marker-color":"#000","marker-symbol":"cross","location":"shut.stands.media"}},{"type":"Feature","geometry":{"type":"Point","coordinates":[-3.186344,55.942958]},"properties":{"marker-color":"#ffc000","marker-symbol":"danger","location":"hers.banks.goat"}},{"type":"Feature","geometry":{"type":"Point","coordinates":[-3.185621,55.943065]},"properties":{"marker-color":"#c0ff00","marker-symbol":"lighthouse","location":"toned.deflection.bland"}},{"type":"Feature","geometry":{"type":"Point","coordinates":[-3.185525,55.943982]},"properties":{"marker-color":"#ff8000","marker-symbol":"danger","location":"manliness.poem.cliff"}},{"type":"Feature","geometry":{"type":"Point","coordinates":[-3.186103,55.944251]},"properties":{"marker-color":"#ffc000","marker-symbol":"danger","location":"organs.shape.fantastic"}},{"type":"Feature","geometry":{"type":"Point","coordinates":[-3.185236,55.944575]},"properties":{"marker-color":"#ff0000","marker-symbol":"danger","location":"acid.chair.butter"}},{"type":"Feature","geometry":{"type":"Point","coordinates":[-3.185332,55.946138]},"properties":{"marker-color":"#ff8000","marker-symbol":"danger","location":"prime.rent.silk"}},{"type":"Feature","geometry":{"type":"Point","coordinates":[-3.186296,55.945761]},"properties":{"marker-color":"#ff8000","marker-symbol":"danger","location":"posts.kicked.universally"}},{"type":"Feature","geometry":{"type":"Point","coordinates":[-3.186729,55.945653]},"properties":{"marker-color":"#ff0000","marker-symbol":"danger","location":"hidden.handle.softly"}},{"type":"Feature","geometry":{"type":"Point","coordinates":[-3.186922,55.945437]},"properties":{"marker-color":"#ff4000","marker-symbol":"danger","location":"spent.spoon.bolt"}},{"type":"Feature","geometry":{"type":"Point","coordinates":[-3.188704,55.945168]},"properties":{"marker-color":"#ff8000","marker-symbol":"danger","location":"rooms.lamp.teach"}},{"type":"Feature","geometry":{"type":"Point","coordinates":[-3.189186,55.945087]},"properties":{"marker-color":"#c0ff00","marker-symbol":"lighthouse","location":"number.exist.rate"}},{"type":"Feature","geometry":{"type":"Point","coordinates":[-3.188945,55.943928]},"properties":{"marker-color":"#40ff00","marker-symbol":"lighthouse","location":"noted.friday.jams"}},{"type":"Feature","geometry":{"type":"Point","coordinates":[-3.189619,55.94382]},"properties":{"marker-color":"#40ff00","marker-symbol":"lighthouse","location":"burn.spot.across"}},{"type":"Feature","geometry":{"type":"Point","coordinates":[-3.190053,55.943173]},"properties":{"marker-color":"#40ff00","marker-symbol":"lighthouse","location":"shows.fries.lamp"}},{"type":"Feature","geometry":{"type":"Point","coordinates":[-3.189908,55.942904]},"properties":{"marker-color":"#40ff00","marker-symbol":"lighthouse","location":"second.launch.miles"}},{"type":"Feature","geometry":{"type":"Point","coordinates":[-3.189764,55.942661]},"properties":{"marker-color":"#40ff00","marker-symbol":"lighthouse","location":"hooked.shine.third"}},{"type":"Feature","geometry":{"type":"Point","coordinates":[-3.189234,55.943012]},"properties":{"marker-color":"#40ff00","marker-symbol":"lighthouse","location":"region.passes.pencil"}},{"type":"Feature","geometry":{"type":"Point","coordinates":[-3.190727,55.943092]},"properties":{"marker-color":"#000","marker-symbol":"cross","location":"relate.chill.vest"}},{"type":"Feature","geometry":{"type":"Point","coordinates":[-3.191161,55.943065]},"properties":{"marker-color":"#00ff00","marker-symbol":"lighthouse","location":"else.urban.museum"}},{"type":"Feature","geometry":{"type":"Point","coordinates":[-3.191113,55.94417]},"properties":{"marker-color":"#00ff00","marker-symbol":"lighthouse","location":"hills.giant.crate"}},{"type":"Feature","geometry":{"type":"Point","coordinates":[-3.191065,55.94444]},"properties":{"marker-color":"#40ff00","marker-symbol":"lighthouse","location":"paying.crowd.weep"}},{"type":"Feature","geometry":{"type":"Point","coordinates":[-3.190438,55.943982]},"properties":{"marker-color":"#40ff00","marker-symbol":"lighthouse","location":"pump.wheels.hulk"}},{"type":"Feature","geometry":{"type":"Point","coordinates":[-3.191016,55.945248]},"properties":{"marker-color":"#ff8000","marker-symbol":"danger","location":"maple.limit.hotels"}},{"type":"Feature","geometry":{"type":"Point","coordinates":[-3.191594,55.945195]},"properties":{"marker-color":"#ff8000","marker-symbol":"danger","location":"hills.feels.tunes"}},{"type":"Feature","geometry":{"type":"Point","coordinates":[-3.192221,55.945114]},"properties":{"marker-color":"#ff8000","marker-symbol":"danger","location":"useful.hike.trades"}},{"type":"Feature","geometry":{"type":"Point","coordinates":[-3.191161,55.945976]},"properties":{"marker-color":"#ff0000","marker-symbol":"danger","location":"simple.rust.audio"}},{"type":"Feature","geometry":{"type":"Point","coordinates":[-3.184754,55.943012]},"properties":{"marker-color":"#ff8000","marker-symbol":"danger","location":"courier.assume.bill"}},{"type":"Feature","geometry":{"type":"LineString","coordinates":[[-3.188396,55.944425],[-3.1881362,55.944575],[-3.1878764,55.944725],[-3.1877738,55.9444431],[-3.1876712,55.9441612],[-3.187901,55.9439683],[-3.1881308,55.9437755],[-3.1879808,55.9435157],[-3.1878308,55.9432559],[-3.1877282,55.942974],[-3.1876761,55.9426785],[-3.1875735,55.9429605],[-3.1874709,55.9432424],[-3.1873683,55.9435243],[-3.1871085,55.9433743],[-3.1868487,55.9432243],[-3.1865889,55.9430743],[-3.1863291,55.9429243],[-3.1860336,55.9429764],[-3.1857382,55.9430285],[-3.1856861,55.9433239],[-3.185634,55.9436193],[-3.1855314,55.9439013],[-3.1857912,55.9440513],[-3.186051,55.9442013],[-3.1857691,55.9443039],[-3.1855093,55.9444539],[-3.1852274,55.9445565],[-3.1852274,55.9448565],[-3.1852274,55.9451565],[-3.1852795,55.9454519],[-3.1852795,55.9457519],[-3.1853316,55.9460473],[-3.1856135,55.9459447],[-3.1858954,55.9458421],[-3.1861908,55.94579],[-3.1864863,55.9457379],[-3.1867682,55.9456353],[-3.186961,55.9454055],[-3.1871538,55.9456353],[-3.1874357,55.9455327],[-3.1877312,55.9454806],[-3.1880266,55.9454285],[-3.1883221,55.9453765],[-3.1885819,55.9452265],[-3.1888773,55.9451744],[-3.1891592,55.9450718],[-3.1891071,55.9447763],[-3.189055,55.9444809],[-3.1890029,55.9441854],[-3.1889508,55.94389],[-3.1892463,55.9438379],[-3.1895463,55.9438379],[-3.1897391,55.9436081],[-3.189932,55.9433783],[-3.190082,55.9431185],[-3.1898891,55.9428886],[-3.1897391,55.9426288],[-3.189687,55.9429243],[-3.1893916,55.9429764],[-3.1896916,55.9429764],[-3.189987,55.9430285],[-3.190287,55.9430285],[-3.1905825,55.9430806],[-3.1908825,55.9430806],[-3.1911825,55.9430806],[-3.1911825,55.9433806],[-3.1911304,55.943676],[-3.1911304,55.943976],[-3.1910783,55.9442714],[-3.1907964,55.9441688],[-3.1905366,55.9440188],[-3.1906392,55.9443007],[-3.1907418,55.9445827],[-3.1908444,55.9448646],[-3.190947,55.9451465],[-3.191247,55.9451465],[-3.1915424,55.9451986],[-3.1918379,55.9451465],[-3.1921379,55.9451465],[-3.1919081,55.9453393],[-3.1916783,55.9455321],[-3.1914484,55.945725],[-3.1912186,55.9459178],[-3.1909367,55.9458152],[-3.1906548,55.9457126],[-3.1903729,55.94561],[-3.190091,55.9455074],[-3.1898312,55.9453574],[-3.1895493,55.9452548],[-3.1892895,55.9451048],[-3.1890076,55.9450022],[-3.1887478,55.9448522],[-3.1884658,55.9447496],[-3.188206,55.9445996],[-3.1879241,55.944497],[-3.1876643,55.944347],[-3.1873824,55.9442444],[-3.1871226,55.9440944],[-3.1868407,55.9439918],[-3.1865809,55.9438418],[-3.186299,55.9437391],[-3.1860392,55.9435891],[-3.1857573,55.9434865],[-3.1854975,55.9433365],[-3.1852156,55.9432339],[-3.1849557,55.9430839],[-3.1846738,55.9429813],[-3.1849336,55.9431313],[-3.1852156,55.9432339],[-3.1854975,55.9433365],[-3.1857794,55.9434391],[-3.1860613,55.9435418],[-3.1863432,55.9436444],[-3.1866251,55.943747],[-3.186907,55.9438496],[-3.1871889,55.9439522],[-3.1874708,55.9440548],[-3.1877527,55.9441574],[-3.1880346,55.94426],[-3.1883165,55.9443626]]},"properties":{}}]}