{"type":"FeatureCollection","features":[{"type":"Feature","geometry":{"type":"Point","coordinates":[-3.187885,55.944709]},"properties":{"marker-color":"#c0ff00","marker-symbol":"lighthouse","location":"hurt.green.filer"}},{"type":"Feature","geometry":{"type":"Point","coordinates":[-3.187645,55.944143]},"properties":{"marker-color":"#80ff00","marker-symbol":"lighthouse","location":"bound.ends.matter"}},{"type":"Feature","geometry":{"type":"Point","coordinates":[-3.1875,55.943874]},"properties":{"marker-color":"#80ff00","marker-symbol":"lighthouse","location":"begins.spider.drips"}},{"type":"Feature","geometry":{"type":"Point","coordinates":[-3.187355,55.943604]},"properties":{"marker-color":"#80ff00","marker-symbol":"lighthouse","location":"shut.stands.media"}},{"type":"Feature","geometry":{"type":"Point","coordinates":[-3.187018,55.943982]},"properties":{"marker-color":"#c0ff00","marker-symbol":"lighthouse","location":"renew.ears.tend"}},{"type":"Feature","geometry":{"type":"Point","coordinates":[-3.186537,55.944063]},"properties":{"marker-color":"#ff8000","marker-symbol":"danger","location":"lime.learns.front"}},{"type":"Feature","geometry":{"type":"Point","coordinates":[-3.186777,55.944575]},"properties":{"marker-color":"#000","marker-symbol":"cross","location":"artist.gets.react"}},{"type":"Feature","geometry":{"type":"Point","coordinates":[-3.186537,55.944925]},"properties":{"marker-color":"#ff0000","marker-symbol":"danger","location":"laws.merit.bleak"}},{"type":"Feature","geometry":{"type":"Point","coordinates":[-3.186729,55.945168]},"properties":{"marker-color":"#ff0000","marker-symbol":"danger","location":"dragon.bottle.crisp"}},{"type":"Feature","geometry":{"type":"Point","coordinates":[-3.186922,55.945437]},"properties":{"marker-color":"#ff8000","marker-symbol":"danger","location":"spent.spoon.bolt"}},{"type":"Feature","geometry":{"type":"Point","coordinates":[-3.185814,55.94603]},"properties":{"marker-color":"#ff8000","marker-symbol":"danger","location":"renew.slows.basket"}},{"type":"Feature","geometry":{"type":"Point","coordinates":[-3.185621,55.945761]},"properties":{"marker-color":"#ff8000","marker-symbol":"danger","location":"shed.desire.muddy"}},{"type":"Feature","geometry":{"type":"Point","coordinates":[-3.184513,55.945302]},"properties":{"marker-color":"#ffc000","marker-symbol":"danger","location":"settle.title.united"}},{"type":"Feature","geometry":{"type":"Point","coordinates":[-3.184658,55.943874]},"properties":{"marker-color":"#ffc000","marker-symbol":"danger","location":"rider.mile.lime"}},{"type":"Feature","geometry":{"type":"Point","coordinates":[-3.184947,55.943443]},"properties":{"marker-color":"#ffc000","marker-symbol":"danger","location":"sentences.sings.modern"}},{"type":"Feature","geometry":{"type":"Point","coordinates":[-3.184754,55.943012]},"properties":{"marker-color":"#ffc000","marker-symbol":"danger","location":"courier.assume.bill"}},{"type":"Feature","geometry":{"type":"Point","coordinates":[-3.185621,55.943065]},"properties":{"marker-color":"#000","marker-symbol":"cross","location":"toned.deflection.bland"}},{"type":"Feature","geometry":{"type":"Point","coordinates":[-3.185814,55.943551]},"properties":{"marker-color":"#000","marker-symbol":"cross","location":"record.sofa.sock"}},{"type":"Feature","geometry":{"type":"Point","coordinates":[-3.18697,55.942688]},"properties":{"marker-color":"#c0ff00","marker-symbol":"lighthouse","location":"strut.river.surely"}},{"type":"Feature","geometry":{"type":"Point","coordinates":[-3.187837,55.943227]},"properties":{"marker-color":"#80ff00","marker-symbol":"lighthouse","location":"gums.clock.modes"}},{"type":"Feature","geometry":{"type":"Point","coordinates":[-3.189234,55.943012]},"properties":{"marker-color":"#80ff00","marker-symbol":"lighthouse","location":"region.passes.pencil"}},{"type":"Feature","geometry":{"type":"Point","coordinates":[-3.190053,55.943173]},"properties":{"marker-color":"#40ff00","marker-symbol":"lighthouse","location":"shows.fries.lamp"}},{"type":"Feature","geometry":{"type":"Point","coordinates":[-3.189812,55.94409]},"properties":{"marker-color":"#40ff00","marker-symbol":"lighthouse","location":"cliff.asleep.wedge"}},{"type":"Feature","geometry":{"type":"Point","coordinates":[-3.189186,55.945087]},"properties":{"marker-color":"#ffc000","marker-symbol":"danger","location":"number.exist.rate"}},{"type":"Feature","geometry":{"type":"Point","coordinates":[-3.188801,55.945437]},"properties":{"marker-color":"#000","marker-symbol":"cross","location":"shady.soft.phones"}},{"type":"Feature","geometry":{"type":"Point","coordinates":[-3.188463,55.945761]},"properties":{"marker-color":"#ff4000","marker-symbol":"danger","location":"bend.tubes.chops"}},{"type":"Feature","geometry":{"type":"Point","coordinates":[-3.18933,55.945653]},"properties":{"marker-color":"#ffc000","marker-symbol":"danger","location":"museum.spicy.horns"}},{"type":"Feature","geometry":{"type":"Point","coordinates":[-3.18986,55.945491]},"properties":{"marker-color":"#ffc000","marker-symbol":"danger","location":"turkey.limit.ramp"}},{"type":"Feature","geometry":{"type":"Point","coordinates":[-3.189957,55.94603]},"properties":{"marker-color":"#ffc000","marker-symbol":"danger","location":"love.behind.orchestra"}},{"type":"Feature","geometry":{"type":"Point","coordinates":[-3.191257,55.945599]},"properties":{"marker-color":"#ff4000","marker-symbol":"danger","location":"skins.engage.best"}},{"type":"Feature","geometry":{"type":"Point","coordinates":[-3.191016,55.944979]},"properties":{"marker-color":"#ff4000","marker-symbol":"danger","location":"shapes.sheep.nature"}},{"type":"Feature","geometry":{"type":"Point","coordinates":[-3.192221,55.945114]},"properties":{"marker-color":"#c0ff00","marker-symbol":"lighthouse","location":"useful.hike.trades"}},{"type":"Feature","geometry":{"type":"Point","coordinates":[-3.191113,55.943631]},"properties":{"marker-color":"#00ff00","marker-symbol":"lighthouse","location":"loaf.cheer.slave"}},{"type":"Feature","geometry":{"type":"LineString","coordinates":[[-3.188396,55.944425],[-3.1881362,55.944575],[-3.1878764,55.944725],[-3.1877738,55.9444431],[-3.1876712,55.9441612],[-3.1875212,55.9439014],[-3.1873712,55.9436416],[-3.1871414,55.9438344],[-3.1868595,55.943937],[-3.1865775,55.9440396],[-3.1868775,55.9440396],[-3.1865821,55.9440917],[-3.186864,55.9439891],[-3.1870938,55.9441819],[-3.1871964,55.9444639],[-3.1871443,55.9441684],[-3.1872469,55.9444503],[-3.1869871,55.9446003],[-3.1866871,55.9446003],[-3.1865371,55.9448601],[-3.1866871,55.9451199],[-3.18688,55.9453497],[-3.1866202,55.9454997],[-3.1863604,55.9456497],[-3.1861005,55.9457997],[-3.1858707,55.9459926],[-3.1856409,55.9457997],[-3.185359,55.9456971],[-3.1850992,55.9455471],[-3.1848173,55.9454445],[-3.1845575,55.9452945],[-3.1845575,55.9449945],[-3.1846096,55.9446991],[-3.1846096,55.9443991],[-3.1846617,55.9441036],[-3.1846617,55.9438036],[-3.1848545,55.9435738],[-3.1848024,55.9432784],[-3.1847503,55.9429829],[-3.1850458,55.943035],[-3.1853458,55.943035],[-3.1856412,55.9430871],[-3.1857438,55.943369],[-3.1860036,55.943219],[-3.1862634,55.943069],[-3.1865232,55.942919],[-3.186783,55.942769],[-3.187065,55.9426664],[-3.1872948,55.9428593],[-3.1875546,55.9430093],[-3.1877844,55.9432021],[-3.1880798,55.94315],[-3.1883753,55.9430979],[-3.1886707,55.9430458],[-3.1889707,55.9430458],[-3.1892662,55.9429937],[-3.1895616,55.9430458],[-3.189857,55.9430979],[-3.1901389,55.9432005],[-3.1900363,55.9434824],[-3.1899337,55.9437643],[-3.1898311,55.9440463],[-3.1896811,55.9443061],[-3.1895311,55.9445659],[-3.1893811,55.9448257],[-3.1891883,55.9450555],[-3.1889585,55.9452483],[-3.1887656,55.9454781],[-3.1885358,55.945671],[-3.1888358,55.945671],[-3.1891358,55.945671],[-3.1894313,55.9456189],[-3.1897132,55.9455163],[-3.1898632,55.9457761],[-3.1899658,55.946058],[-3.1902477,55.9459554],[-3.1905296,55.9458528],[-3.1908115,55.9457502],[-3.1910934,55.9456476],[-3.1910413,55.9453521],[-3.1910413,55.9450521],[-3.1913413,55.9450521],[-3.1916413,55.9450521],[-3.1919368,55.9451042],[-3.1922368,55.9451042],[-3.1920439,55.9448744],[-3.1918511,55.9446446],[-3.1916583,55.9444148],[-3.1915083,55.944155],[-3.1913154,55.9439252],[-3.1911654,55.9436653],[-3.1908835,55.943768],[-3.1905881,55.94382],[-3.1903062,55.9439227],[-3.1900107,55.9439748],[-3.1897288,55.9440774],[-3.1894334,55.9441295],[-3.1891515,55.9442321],[-3.188856,55.9442842],[-3.1885741,55.9443868]]},"properties":{}}]}