{"type":"FeatureCollection","features":[{"type":"Feature","geometry":{"type":"Point","coordinates":[-3.187645,55.944143]},"properties":{"marker-color":"#40ff00","marker-symbol":"lighthouse","location":"bound.ends.matter"}},{"type":"Feature","geometry":{"type":"Point","coordinates":[-3.1875,55.943874]},"properties":{"marker-color":"#80ff00","marker-symbol":"lighthouse","location":"begins.spider.drips"}},{"type":"Feature","geometry":{"type":"Point","coordinates":[-3.187982,55.943497]},"properties":{"marker-color":"#000","marker-symbol":"cross","location":"scare.cubs.resort"}},{"type":"Feature","geometry":{"type":"Point","coordinates":[-3.187693,55.942769]},"properties":{"marker-color":"#ffc000","marker-symbol":"danger","location":"panic.squad.danger"}},{"type":"Feature","geometry":{"type":"Point","coordinates":[-3.187018,55.942877]},"properties":{"marker-color":"#ff8000","marker-symbol":"danger","location":"valve.elaborate.fortunate"}},{"type":"Feature","geometry":{"type":"Point","coordinates":[-3.185621,55.943065]},"properties":{"marker-color":"#ffc000","marker-symbol":"danger","location":"toned.deflection.bland"}},{"type":"Feature","geometry":{"type":"Point","coordinates":[-3.18567,55.944359]},"properties":{"marker-color":"#ff8000","marker-symbol":"danger","location":"atoms.vanish.foods"}},{"type":"Feature","geometry":{"type":"Point","coordinates":[-3.186392,55.944656]},"properties":{"marker-color":"#ff4000","marker-symbol":"danger","location":"rated.fired.crowds"}},{"type":"Feature","geometry":{"type":"Point","coordinates":[-3.186729,55.945168]},"properties":{"marker-color":"#ffc000","marker-symbol":"danger","location":"dragon.bottle.crisp"}},{"type":"Feature","geometry":{"type":"Point","coordinates":[-3.186922,55.945437]},"properties":{"marker-color":"#ffc000","marker-symbol":"danger","location":"spent.spoon.bolt"}},{"type":"Feature","geometry":{"type":"Point","coordinates":[-3.186296,55.945761]},"properties":{"marker-color":"#ff4000","marker-symbol":"danger","location":"posts.kicked.universally"}},{"type":"Feature","geometry":{"type":"Point","coordinates":[-3.185814,55.94603]},"properties":{"marker-color":"#ff8000","marker-symbol":"danger","location":"renew.slows.basket"}},{"type":"Feature","geometry":{"type":"Point","coordinates":[-3.184513,55.945302]},"properties":{"marker-color":"#ff4000","marker-symbol":"danger","location":"settle.title.united"}},{"type":"Feature","geometry":{"type":"Point","coordinates":[-3.184465,55.944952]},"properties":{"marker-color":"#ffc000","marker-symbol":"danger","location":"sports.topic.clocks"}},{"type":"Feature","geometry":{"type":"Point","coordinates":[-3.184899,55.944736]},"properties":{"marker-color":"#000","marker-symbol":"cross","location":"slide.leads.stores"}},{"type":"Feature","geometry":{"type":"Point","coordinates":[-3.184658,55.943874]},"properties":{"marker-color":"#ff8000","marker-symbol":"danger","location":"rider.mile.lime"}},{"type":"Feature","geometry":{"type":"Point","coordinates":[-3.187307,55.944494]},"properties":{"marker-color":"#000","marker-symbol":"cross","location":"only.fairly.rift"}},{"type":"Feature","geometry":{"type":"Point","coordinates":[-3.188704,55.945168]},"properties":{"marker-color":"#000","marker-symbol":"cross","location":"rooms.lamp.teach"}},{"type":"Feature","geometry":{"type":"Point","coordinates":[-3.188897,55.945707]},"properties":{"marker-color":"#000","marker-symbol":"cross","location":"stops.else.chats"}},{"type":"Feature","geometry":{"type":"Point","coordinates":[-3.18933,55.945653]},"properties":{"marker-color":"#ff0000","marker-symbol":"danger","location":"museum.spicy.horns"}},{"type":"Feature","geometry":{"type":"Point","coordinates":[-3.188463,55.945761]},"properties":{"marker-color":"#ff8000","marker-symbol":"danger","location":"bend.tubes.chops"}},{"type":"Feature","geometry":{"type":"Point","coordinates":[-3.188849,55.943658]},"properties":{"marker-color":"#40ff00","marker-symbol":"lighthouse","location":"labels.hotels.alert"}},{"type":"Feature","geometry":{"type":"Point","coordinates":[-3.189523,55.943551]},"properties":{"marker-color":"#40ff00","marker-symbol":"lighthouse","location":"cars.attend.hotels"}},{"type":"Feature","geometry":{"type":"Point","coordinates":[-3.189234,55.943012]},"properties":{"marker-color":"#80ff00","marker-symbol":"lighthouse","location":"region.passes.pencil"}},{"type":"Feature","geometry":{"type":"Point","coordinates":[-3.189908,55.942904]},"properties":{"marker-color":"#00ff00","marker-symbol":"lighthouse","location":"second.launch.miles"}},{"type":"Feature","geometry":{"type":"Point","coordinates":[-3.190197,55.943443]},"properties":{"marker-color":"#40ff00","marker-symbol":"lighthouse","location":"arts.dish.scarcely"}},{"type":"Feature","geometry":{"type":"Point","coordinates":[-3.190294,55.943712]},"properties":{"marker-color":"#40ff00","marker-symbol":"lighthouse","location":"sculpture.shot.melon"}},{"type":"Feature","geometry":{"type":"Point","coordinates":[-3.190438,55.943982]},"properties":{"marker-color":"#000","marker-symbol":"cross","location":"pump.wheels.hulk"}},{"type":"Feature","geometry":{"type":"Point","coordinates":[-3.191113,55.943901]},"properties":{"marker-color":"#00ff00","marker-symbol":"lighthouse","location":"spicy.bunch.shady"}},{"type":"Feature","geometry":{"type":"Point","coordinates":[-3.191113,55.943631]},"properties":{"marker-color":"#00ff00","marker-symbol":"lighthouse","location":"loaf.cheer.slave"}},{"type":"Feature","geometry":{"type":"Point","coordinates":[-3.190727,55.943092]},"properties":{"marker-color":"#00ff00","marker-symbol":"lighthouse","location":"relate.chill.vest"}},{"type":"Feature","geometry":{"type":"Point","coordinates":[-3.191016,55.944979]},"properties":{"marker-color":"#ff8000","marker-symbol":"danger","location":"shapes.sheep.nature"}},{"type":"Feature","geometry":{"type":"Point","coordinates":[-3.191161,55.945976]},"properties":{"marker-color":"#ffc000","marker-symbol":"danger","location":"simple.rust.audio"}},{"type":"Feature","geometry":{"type":"LineString","coordinates":[[-3.188396,55.944425],[-3.1881141,55.9443224],[-3.1878322,55.9442198],[-3.1875503,55.9441172],[-3.1874982,55.9438217],[-3.187758,55.9436717],[-3.1879878,55.9434789],[-3.1878852,55.943197],[-3.1877826,55.9429151],[-3.1874826,55.9429151],[-3.1871826,55.9429151],[-3.1868871,55.9429672],[-3.1865871,55.9429672],[-3.1862917,55.9430193],[-3.1859917,55.9430193],[-3.1856963,55.9430714],[-3.1856963,55.9433714],[-3.1856963,55.9436714],[-3.1856963,55.9439714],[-3.1856963,55.9442714],[-3.1859561,55.9444214],[-3.1862159,55.9445714],[-3.1864087,55.9448012],[-3.1866016,55.945031],[-3.1867944,55.9452608],[-3.1869872,55.9454906],[-3.1867053,55.9455932],[-3.1864234,55.9456958],[-3.1861636,55.9458458],[-3.1859038,55.9459958],[-3.185644,55.9458458],[-3.1853842,55.9456958],[-3.1851023,55.9455932],[-3.1848425,55.9454432],[-3.1845606,55.9453406],[-3.1845085,55.9450452],[-3.1847383,55.9448523],[-3.1847383,55.9445523],[-3.1846862,55.9442569],[-3.1846862,55.9439569],[-3.1849816,55.944009],[-3.1852771,55.9440611],[-3.1855725,55.9441132],[-3.1858679,55.9441653],[-3.1861634,55.9442174],[-3.1864232,55.9440674],[-3.1867232,55.9440674],[-3.1870186,55.9440153],[-3.1871686,55.9442751],[-3.1873186,55.9445349],[-3.1876186,55.9445349],[-3.1878784,55.9446849],[-3.1881383,55.9448349],[-3.1883981,55.9449849],[-3.1886579,55.9451349],[-3.1887605,55.9454168],[-3.1889105,55.9456766],[-3.1892105,55.9456766],[-3.188915,55.9457287],[-3.188615,55.9457287],[-3.1886671,55.9454333],[-3.1887192,55.9451378],[-3.1887713,55.9448424],[-3.1887713,55.9445424],[-3.1888234,55.9442469],[-3.1888234,55.9439469],[-3.1888755,55.9436515],[-3.1891709,55.9435994],[-3.1894664,55.9435473],[-3.1893638,55.9432654],[-3.1892138,55.9430056],[-3.1895092,55.9429535],[-3.1898047,55.9429014],[-3.1899975,55.9431312],[-3.1901475,55.943391],[-3.1902501,55.9436729],[-3.1904001,55.9439327],[-3.1907001,55.9439327],[-3.1910001,55.9439327],[-3.1911027,55.9436508],[-3.1909527,55.943391],[-3.1907599,55.9431612],[-3.190812,55.9434567],[-3.1908641,55.9437521],[-3.1909162,55.9440475],[-3.1909683,55.944343],[-3.1909683,55.944643],[-3.1910204,55.9449384],[-3.1910724,55.9452339],[-3.1911245,55.9455293],[-3.1911245,55.9458293],[-3.1908647,55.9456793],[-3.1906049,55.9455293],[-3.1903451,55.9453793],[-3.1900853,55.9452293],[-3.1898255,55.9450793],[-3.1895436,55.9449767],[-3.1892838,55.9448267],[-3.1890019,55.9447241],[-3.1887421,55.9445741],[-3.1884602,55.9444715]]},"properties":{}}]}