{"type":"FeatureCollection","features":[{"type":"Feature","geometry":{"type":"Point","coordinates":[-3.188271,55.944063]},"properties":{"marker-color":"#00ff00","marker-symbol":"lighthouse","location":"rush.crown.link"}},{"type":"Feature","geometry":{"type":"Point","coordinates":[-3.188126,55.943793]},"properties":{"marker-color":"#40ff00","marker-symbol":"lighthouse","location":"cubs.trucks.help"}},{"type":"Feature","geometry":{"type":"Point","coordinates":[-3.187789,55.944386]},"properties":{"marker-color":"#40ff00","marker-symbol":"lighthouse","location":"thank.salsa.brain"}},{"type":"Feature","geometry":{"type":"Point","coordinates":[-3.187307,55.944494]},"properties":{"marker-color":"#ffc000","marker-symbol":"danger","location":"only.fairly.rift"}},{"type":"Feature","geometry":{"type":"Point","coordinates":[-3.187018,55.943982]},"properties":{"marker-color":"#80ff00","marker-symbol":"lighthouse","location":"renew.ears.tend"}},{"type":"Feature","geometry":{"type":"Point","coordinates":[-3.187355,55.943604]},"properties":{"marker-color":"#80ff00","marker-symbol":"lighthouse","location":"shut.stands.media"}},{"type":"Feature","geometry":{"type":"Point","coordinates":[-3.18697,55.942688]},"properties":{"marker-color":"#ff4000","marker-symbol":"danger","location":"strut.river.surely"}},{"type":"Feature","geometry":{"type":"Point","coordinates":[-3.186007,55.943901]},"properties":{"marker-color":"#ffc000","marker-symbol":"danger","location":"teams.mild.played"}},{"type":"Feature","geometry":{"type":"Point","coordinates":[-3.186103,55.944251]},"properties":{"marker-color":"#ff4000","marker-symbol":"danger","location":"organs.shape.fantastic"}},{"type":"Feature","geometry":{"type":"Point","coordinates":[-3.185525,55.943982]},"properties":{"marker-color":"#ffc000","marker-symbol":"danger","location":"manliness.poem.cliff"}},{"type":"Feature","geometry":{"type":"Point","coordinates":[-3.185236,55.944575]},"properties":{"marker-color":"#ff8000","marker-symbol":"danger","location":"acid.chair.butter"}},{"type":"Feature","geometry":{"type":"Point","coordinates":[-3.184899,55.944736]},"properties":{"marker-color":"#000","marker-symbol":"cross","location":"slide.leads.stores"}},{"type":"Feature","geometry":{"type":"Point","coordinates":[-3.184513,55.945302]},"properties":{"marker-color":"#ff4000","marker-symbol":"danger","location":"settle.title.united"}},{"type":"Feature","geometry":{"type":"Point","coordinates":[-3.185621,55.945761]},"properties":{"marker-color":"#ff4000","marker-symbol":"danger","location":"shed.desire.muddy"}},{"type":"Feature","geometry":{"type":"Point","coordinates":[-3.185814,55.94603]},"properties":{"marker-color":"#ff0000","marker-symbol":"danger","location":"renew.slows.basket"}},{"type":"Feature","geometry":{"type":"Point","coordinates":[-3.186296,55.945761]},"properties":{"marker-color":"#ff4000","marker-symbol":"danger","location":"posts.kicked.universally"}},{"type":"Feature","geometry":{"type":"Point","coordinates":[-3.186729,55.945168]},"properties":{"marker-color":"#ffc000","marker-symbol":"danger","location":"dragon.bottle.crisp"}},{"type":"Feature","geometry":{"type":"Point","coordinates":[-3.188319,55.945518]},"properties":{"marker-color":"#000","marker-symbol":"cross","location":"skills.less.herb"}},{"type":"Feature","geometry":{"type":"Point","coordinates":[-3.188897,55.945707]},"properties":{"marker-color":"#ff0000","marker-symbol":"danger","location":"stops.else.chats"}},{"type":"Feature","geometry":{"type":"Point","coordinates":[-3.189138,55.944197]},"properties":{"marker-color":"#40ff00","marker-symbol":"lighthouse","location":"spoon.invest.every"}},{"type":"Feature","geometry":{"type":"Point","coordinates":[-3.189812,55.94409]},"properties":{"marker-color":"#40ff00","marker-symbol":"lighthouse","location":"cliff.asleep.wedge"}},{"type":"Feature","geometry":{"type":"Point","coordinates":[-3.190294,55.943712]},"properties":{"marker-color":"#40ff00","marker-symbol":"lighthouse","location":"sculpture.shot.melon"}},{"type":"Feature","geometry":{"type":"Point","coordinates":[-3.190727,55.943092]},"properties":{"marker-color":"#00ff00","marker-symbol":"lighthouse","location":"relate.chill.vest"}},{"type":"Feature","geometry":{"type":"Point","coordinates":[-3.191161,55.943065]},"properties":{"marker-color":"#00ff00","marker-symbol":"lighthouse","location":"else.urban.museum"}},{"type":"Feature","geometry":{"type":"Point","coordinates":[-3.191161,55.943362]},"properties":{"marker-color":"#40ff00","marker-symbol":"lighthouse","location":"meal.feed.large"}},{"type":"Feature","geometry":{"type":"Point","coordinates":[-3.191113,55.943901]},"properties":{"marker-color":"#00ff00","marker-symbol":"lighthouse","location":"spicy.bunch.shady"}},{"type":"Feature","geometry":{"type":"Point","coordinates":[-3.191065,55.94444]},"properties":{"marker-color":"#40ff00","marker-symbol":"lighthouse","location":"paying.crowd.weep"}},{"type":"Feature","geometry":{"type":"Point","coordinates":[-3.191161,55.942742]},"properties":{"marker-color":"#00ff00","marker-symbol":"lighthouse","location":"along.spill.limp"}},{"type":"Feature","geometry":{"type":"Point","coordinates":[-3.189764,55.942661]},"properties":{"marker-color":"#40ff00","marker-symbol":"lighthouse","location":"hooked.shine.third"}},{"type":"Feature","geometry":{"type":"Point","coordinates":[-3.188704,55.943389]},"properties":{"marker-color":"#00ff00","marker-symbol":"lighthouse","location":"system.speak.guard"}},{"type":"Feature","geometry":{"type":"Point","coordinates":[-3.188608,55.943119]},"properties":{"marker-color":"#40ff00","marker-symbol":"lighthouse","location":"groups.ideas.script"}},{"type":"Feature","geometry":{"type":"Point","coordinates":[-3.184947,55.943443]},"properties":{"marker-color":"#ffc000","marker-symbol":"danger","location":"sentences.sings.modern"}},{"type":"Feature","geometry":{"type":"Point","coordinates":[-3.191161,55.945976]},"properties":{"marker-color":"#000","marker-symbol":"cross","location":"simple.rust.audio"}},{"type":"Feature","geometry":{"type":"LineString","coordinates":[[-3.188396,55.944425],[-3.1882934,55.9441431],[-3.1881434,55.9438833],[-3.1879506,55.9441131],[-3.1878006,55.9443729],[-3.1875051,55.944425],[-3.1872232,55.9445276],[-3.1871206,55.9442457],[-3.187018,55.9439638],[-3.1872108,55.943734],[-3.1871587,55.9434385],[-3.1871066,55.9431431],[-3.187004,55.9428612],[-3.1868112,55.943091],[-3.1867086,55.9433729],[-3.1864788,55.9435657],[-3.186249,55.9437586],[-3.1859892,55.9439086],[-3.1860918,55.9441905],[-3.1858099,55.9440879],[-3.185528,55.9439853],[-3.185378,55.9442451],[-3.1852753,55.944527],[-3.1850155,55.944677],[-3.1848227,55.9449068],[-3.1846299,55.9451366],[-3.184437,55.9453664],[-3.1847189,55.945469],[-3.1850008,55.9455716],[-3.1852828,55.9456742],[-3.1855782,55.9457263],[-3.185771,55.9459562],[-3.1860529,55.9458535],[-3.1863348,55.9457509],[-3.1864848,55.9454911],[-3.1866777,55.9452613],[-3.1869596,55.9453639],[-3.1871096,55.9456237],[-3.1874096,55.9456237],[-3.187705,55.9455716],[-3.188005,55.9455716],[-3.1883005,55.9455195],[-3.1885824,55.9456222],[-3.1888643,55.9457248],[-3.1889164,55.9454293],[-3.1889685,55.9451339],[-3.1890206,55.9448384],[-3.1890727,55.944543],[-3.1891248,55.9442475],[-3.1894202,55.9441955],[-3.1897021,55.9440928],[-3.1899619,55.9439428],[-3.1902217,55.9437928],[-3.1904146,55.943563],[-3.1905646,55.9433032],[-3.1907574,55.9430734],[-3.1910574,55.9430734],[-3.19116,55.9433553],[-3.19116,55.9436553],[-3.1911079,55.9439508],[-3.1910558,55.9442462],[-3.1910558,55.9439462],[-3.1910558,55.9436462],[-3.1911079,55.9433508],[-3.1911079,55.9430508],[-3.19116,55.9427553],[-3.19086,55.9427553],[-3.19056,55.9427553],[-3.1902646,55.9427032],[-3.1899646,55.9427032],[-3.1896691,55.9426511],[-3.1897717,55.942933],[-3.1894898,55.9430356],[-3.1892079,55.9431383],[-3.1889481,55.9432883],[-3.1886662,55.9433909],[-3.1886141,55.9430954],[-3.1883187,55.9431475],[-3.1880232,55.9431996],[-3.1877232,55.9431996],[-3.1874278,55.9432517],[-3.1871278,55.9432517],[-3.1868323,55.9433038],[-3.1865725,55.9434538],[-3.1862725,55.9434538],[-3.1859725,55.9434538],[-3.1856725,55.9434538],[-3.1853725,55.9434538],[-3.1850725,55.9434538],[-3.1853544,55.9435564],[-3.1856363,55.943659],[-3.1859182,55.9437616],[-3.1862002,55.9438642],[-3.1864821,55.9439668],[-3.1867775,55.9440189],[-3.1870729,55.944071],[-3.1873549,55.9441736],[-3.1876147,55.9443236],[-3.1878966,55.9444262],[-3.1881564,55.9445762],[-3.1884383,55.9446788],[-3.1886981,55.9448288],[-3.18898,55.9449314],[-3.1892398,55.9450814],[-3.1895217,55.945184],[-3.1897815,55.945334],[-3.1900634,55.9454366],[-3.1903232,55.9455866],[-3.1906051,55.9456893],[-3.190865,55.9458393],[-3.1911469,55.9459419],[-3.1908871,55.9457919],[-3.1906272,55.9456419],[-3.1903674,55.9454919],[-3.1901076,55.9453419],[-3.1898478,55.9451919],[-3.189588,55.9450419],[-3.1893282,55.9448919],[-3.1890684,55.9447419],[-3.1888086,55.9445919],[-3.1885267,55.9444893]]},"properties":{}}]}